,City,Lat,Lon,Temp,Humidity,Cloudiness,Windspeed,Country,Date
0,yar-sale,66.83,70.83,13.6,96,0,9.75,RU,1603635121
1,nikolskoye,59.7,30.79,44.6,81,90,2.24,RU,1603635121
2,cabo san lucas,22.89,-109.91,78.8,50,5,16.11,MX,1603635122
3,jamestown,42.1,-79.24,37.99,74,40,5.82,US,1603634952
4,saskylakh,71.92,114.08,9.9,94,100,14.72,RU,1603635122
5,rikitea,-23.12,-134.97,74.61,79,100,18.84,PF,1603635122
6,avarua,-21.21,-159.78,73.4,73,92,9.17,CK,1603635122
7,bluff,-46.6,168.33,45.0,96,100,9.22,NZ,1603635058
8,ostrovnoy,68.05,39.51,29.52,92,68,11.43,RU,1603635089
9,ushuaia,-54.8,-68.3,46.4,61,75,4.7,AR,1603635123
10,kodiak,57.79,-152.41,46.4,87,90,9.17,US,1603635068
11,huilong,31.81,121.66,63.0,84,2,8.12,CN,1603635123
12,pauini,-7.71,-66.98,80.51,82,100,1.23,BR,1603635123
13,gao,16.64,1.64,95.13,8,0,12.24,ML,1603634828
14,thompson,55.74,-97.86,21.2,92,90,6.93,CA,1603635050
15,port alfred,-33.59,26.89,69.64,68,31,17.92,ZA,1603634956
16,ilulissat,69.22,-51.1,15.8,52,28,8.05,GL,1603635124
17,yellowknife,62.46,-114.35,21.99,85,40,8.05,CA,1603634904
18,cururupu,-1.83,-44.87,86.99,59,98,7.02,BR,1603635124
19,puerto ayora,-0.74,-90.35,68.0,94,100,7.0,EC,1603635052
20,hermanus,-34.42,19.23,62.01,83,94,5.99,ZA,1603634891
21,gizo,-8.1,156.84,81.45,76,100,4.81,SB,1603635124
22,cape town,-33.93,18.42,68.0,63,20,26.4,ZA,1603635023
23,itoman,26.12,127.67,73.4,60,75,10.29,JP,1603635125
24,cherskiy,68.75,161.3,11.05,96,100,1.41,RU,1603635063
25,buckeye,33.37,-112.58,68.0,48,100,3.36,US,1603634992
26,albany,42.6,-73.97,42.01,68,34,6.15,US,1603635056
27,russell,32.35,-85.2,69.8,94,90,2.08,US,1603635125
28,beausejour,50.06,-96.52,23.0,98,100,5.99,CA,1603635125
29,bredasdorp,-34.53,20.04,66.2,68,100,9.17,ZA,1603635126
30,puerto escondido,15.85,-97.07,73.4,83,40,8.05,MX,1603635126
31,ponta do sol,32.67,-17.1,71.6,60,20,11.41,PT,1603635102
32,saint george,37.1,-113.58,53.6,54,0,1.43,US,1603634943
33,mataura,-46.19,168.86,45.0,96,100,2.82,NZ,1603635126
34,busselton,-33.65,115.33,64.0,48,0,7.81,AU,1603635126
35,longyearbyen,78.22,15.64,26.6,73,75,10.29,SJ,1603635126
36,van buren,35.44,-94.35,50.0,87,90,6.93,US,1603635127
37,asfi,32.3,-9.24,69.64,61,0,15.46,MA,1603635127
38,vila do maio,15.13,-23.22,87.8,52,0,25.28,CV,1603635127
39,iqaluit,63.75,-68.51,10.4,78,40,12.75,CA,1603635127
40,georgetown,5.41,100.34,80.6,88,40,4.36,MY,1603635127
41,qaanaaq,77.48,-69.36,16.32,86,57,13.22,GL,1603635127
42,zhigansk,66.77,123.37,1.56,88,0,5.97,RU,1603635127
43,semirom,31.42,51.57,45.7,54,0,1.54,IR,1603634946
44,hobart,-42.88,147.33,48.2,66,90,6.93,AU,1603634856
45,salalah,17.02,54.09,84.2,48,0,6.93,OM,1603635128
46,shiyan,32.65,110.78,63.16,54,97,0.34,CN,1603635128
47,bengkulu,-3.8,102.27,76.14,88,100,6.22,ID,1603635128
48,sao gabriel da cachoeira,-0.13,-67.09,90.79,56,88,2.3,BR,1603635128
49,nouadhibou,20.93,-17.03,91.4,31,100,19.46,MR,1603635128
50,mar del plata,-38.0,-57.56,62.6,100,90,6.93,AR,1603635074
51,east london,-33.02,27.91,68.0,72,0,19.46,ZA,1603635129
52,faanui,-16.48,-151.75,79.5,69,58,2.15,PF,1603635129
53,mae sot,16.72,98.57,75.58,85,95,0.47,TH,1603635129
54,olafsvik,64.89,-23.71,41.92,81,100,33.53,IS,1603635129
55,itarema,-2.92,-39.92,88.92,53,5,16.87,BR,1603635052
56,constitucion,-35.33,-72.42,56.68,63,0,8.08,CL,1603635130
57,coroata,-4.13,-44.12,95.09,44,62,4.47,BR,1603635130
58,vaini,-21.2,-175.2,75.2,88,75,10.29,TO,1603635054
59,yulara,-25.24,130.99,69.8,27,1,12.75,AU,1603635015
60,sao filipe,14.9,-24.5,84.2,61,100,16.44,CV,1603635130
61,provideniya,64.38,-173.3,31.96,95,17,4.94,RU,1603635130
62,tuktoyaktuk,69.45,-133.04,28.4,86,75,28.86,CA,1603635130
63,tuatapere,-46.13,167.68,45.0,96,100,4.56,NZ,1603635101
64,carnarvon,-24.87,113.63,71.6,83,90,17.22,AU,1603635131
65,maniitsoq,65.42,-52.9,24.13,84,100,6.6,GL,1603635131
66,hithadhoo,-0.6,73.08,83.71,72,55,6.78,MV,1603634961
67,komatipoort,-25.43,31.95,95.0,31,0,1.99,ZA,1603635131
68,hilo,19.73,-155.09,77.0,83,90,3.36,US,1603635059
69,karratha,-20.74,116.85,69.89,89,0,12.57,AU,1603635132
70,ewa beach,21.32,-158.01,71.6,88,1,3.36,US,1603635132
71,riyadh,24.69,46.72,86.0,16,0,8.05,SA,1603635032
72,sabang,5.89,95.32,82.44,75,100,17.72,ID,1603635132
73,mocajuba,-2.58,-49.51,93.13,45,49,4.43,BR,1603635132
74,ptolemais,40.51,21.68,69.01,45,56,4.7,GR,1603635132
75,atuona,-9.8,-139.03,78.17,75,27,19.82,PF,1603635132
76,fukue,32.69,128.84,59.0,87,75,2.24,JP,1603635133
77,reviga,44.72,27.1,71.6,68,75,20.8,RO,1603635133
78,konotop,51.24,33.2,53.76,71,51,4.72,UA,1603635133
79,aklavik,68.22,-135.01,24.8,92,90,6.93,CA,1603635133
80,birjand,32.87,59.22,71.6,10,0,6.93,IR,1603635133
81,laguna,38.42,-121.42,55.4,76,1,8.05,US,1603635133
82,galapagar,40.58,-4.0,55.99,82,100,4.0,ES,1603635134
83,vardo,70.37,31.11,37.4,86,75,10.29,NO,1603635134
84,meulaboh,4.14,96.13,78.91,73,99,1.07,ID,1603635064
85,broken hill,-31.95,141.43,48.2,61,2,4.7,AU,1603635134
86,kahului,20.89,-156.47,73.4,69,1,4.7,US,1603635134
87,kapaa,22.08,-159.32,71.01,59,6,4.74,US,1603635135
88,rawson,-43.3,-65.1,62.33,29,0,22.82,AR,1603635135
89,banyo,6.75,11.82,81.23,51,3,4.79,CM,1603635135
90,bardiyah,31.76,25.09,73.2,67,0,17.85,LY,1603635135
91,dikson,73.51,80.55,18.55,97,98,10.92,RU,1603635135
92,wellington,-41.29,174.78,61.0,87,30,19.46,NZ,1603634993
93,marovoay,-16.1,46.63,86.0,55,20,13.87,MG,1603635135
94,punta arenas,-53.15,-70.92,42.8,81,75,6.93,CL,1603635135
95,dong hoi,17.48,106.6,67.57,88,100,18.63,VN,1603634961
96,ligayan,4.65,119.47,83.1,74,99,6.26,PH,1603635136
97,forbes,-33.38,148.02,55.0,93,100,8.1,AU,1603635136
98,katsuura,35.13,140.3,60.8,67,0,6.93,JP,1603635124
99,lodja,-3.48,23.43,79.43,92,86,3.02,CD,1603635136
100,acapulco,16.86,-99.89,80.6,88,75,3.36,MX,1603634991
101,new norfolk,-42.78,147.06,42.01,56,0,2.17,AU,1603635137
102,waspan,14.74,-83.97,76.01,94,100,2.68,NI,1603635137
103,zhezkazgan,47.8,67.71,44.04,60,83,11.27,KZ,1603635137
104,bambous virieux,-20.34,57.76,75.2,69,75,12.75,MU,1603635137
105,freeport,40.66,-73.58,51.01,61,1,11.41,US,1603635137
106,port elizabeth,-33.92,25.57,69.8,73,75,19.46,ZA,1603635138
107,dieppe,49.75,1.17,57.0,82,75,13.87,FR,1603635138
108,dzerzhinsk,56.24,43.46,37.4,64,75,6.71,RU,1603635138
109,luanda,-8.84,13.23,82.4,74,75,10.29,AO,1603634925
110,la asuncion,11.03,-63.86,83.84,75,14,16.62,VE,1603635138
111,wewak,-3.55,143.63,81.28,74,100,4.79,PG,1603635138
112,san patricio,28.02,-97.52,75.0,83,75,6.93,US,1603635139
113,kaitangata,-46.28,169.85,48.0,96,100,5.01,NZ,1603635139
114,orchard homes,46.86,-114.05,0.0,84,1,3.36,US,1603635139
115,heze,35.24,115.44,59.16,46,71,6.31,CN,1603635139
116,bafata,12.17,-14.75,95.79,40,0,4.14,GW,1603635139
117,chokurdakh,70.63,147.92,8.02,92,0,11.03,RU,1603635063
118,souillac,-20.52,57.52,75.2,69,75,12.75,MU,1603635139
119,lavrentiya,65.58,-171.0,32.86,93,89,9.15,RU,1603635140
120,alta floresta,-9.88,-56.09,94.95,43,78,1.95,BR,1603634962
121,wattegama,6.8,81.48,86.0,70,40,6.93,LK,1603635140
122,mount gambier,-37.83,140.77,41.0,86,0,10.29,AU,1603635063
123,zabol,32.25,67.25,49.39,39,0,9.37,AF,1603635140
124,okhotsk,59.38,143.3,35.89,81,100,23.69,RU,1603635140
125,jalu,29.03,21.55,80.62,30,0,10.16,LY,1603635141
126,muros,42.78,-9.06,59.0,80,23,8.99,ES,1603635141
127,sawtell,-30.38,153.1,62.6,93,90,10.29,AU,1603635141
128,xinmin,41.99,122.83,41.0,80,0,2.24,CN,1603635141
129,umm lajj,25.02,37.27,85.77,54,0,7.72,SA,1603635136
130,maragogi,-9.01,-35.22,82.08,74,81,13.98,BR,1603634996
131,rundu,-17.93,19.77,102.72,9,39,9.28,NA,1603635085
132,libreville,0.39,9.45,86.0,70,20,10.29,GA,1603635061
133,saldanha,-33.01,17.94,69.8,60,100,16.11,ZA,1603635142
134,svetlyy,54.67,20.13,62.6,67,0,8.95,RU,1603635142
135,alice springs,-23.7,133.88,66.2,29,0,10.29,AU,1603635105
136,luderitz,-26.65,15.16,76.46,37,39,26.89,NA,1603635142
137,castro,-24.79,-50.01,75.61,63,0,4.03,BR,1603635142
138,paamiut,61.99,-49.67,32.85,92,100,9.37,GL,1603635142
139,sorong,-0.88,131.25,79.79,80,99,3.67,ID,1603635143
140,natividad,16.04,120.8,76.77,82,100,4.72,PH,1603635143
141,poum,-20.23,164.02,76.5,79,32,19.95,NC,1603635142
142,marsa matruh,31.35,27.25,77.0,61,40,13.87,EG,1603635143
143,hualmay,-11.1,-77.61,66.47,72,17,8.68,PE,1603635143
144,senanga,-16.12,23.27,102.29,8,0,8.86,ZM,1603635143
145,praia da vitoria,38.73,-27.07,68.0,60,20,11.83,PT,1603635110
146,nabire,-3.37,135.48,76.3,87,72,3.76,ID,1603635144
147,krasnyy profintern,57.74,40.44,42.8,80,90,4.47,RU,1603635144
148,gari,59.43,62.35,29.97,99,100,2.77,RU,1603635144
149,port hardy,50.7,-127.42,30.2,92,75,4.7,CA,1603635066
150,katsina,12.99,7.6,94.12,14,82,8.77,NG,1603635144
151,klaksvik,62.23,-6.59,46.4,93,75,14.99,FO,1603635144
152,lagoa,39.05,-27.98,64.4,66,100,10.38,PT,1603635145
153,pilar,-9.6,-35.96,86.0,66,75,11.41,BR,1603635072
154,bushehr,28.97,50.84,87.8,45,0,11.41,IR,1603635145
155,los llanos de aridane,28.66,-17.92,73.4,56,75,14.99,ES,1603635145
156,lorengau,-2.02,147.27,82.6,72,59,5.44,PG,1603635145
157,trat,12.5,102.5,79.0,73,14,4.85,TH,1603635145
158,faya,18.39,42.45,75.2,38,20,9.17,SA,1603635146
159,beira,-19.84,34.84,82.0,69,20,16.11,MZ,1603635146
160,saint-philippe,-21.36,55.77,75.2,64,75,11.41,RE,1603635146
161,batangafo,7.3,18.28,89.78,52,2,3.06,CF,1603635146
162,horsham,51.06,-0.33,51.8,87,75,4.7,GB,1603635146
163,hasaki,35.73,140.83,51.8,81,20,4.7,JP,1603635082
164,matara,5.95,80.54,80.29,80,100,10.22,LK,1603635146
165,tasiilaq,65.61,-37.64,32.0,97,100,5.12,GL,1603635147
166,burnie,-41.07,145.92,46.99,66,0,5.99,AU,1603635052
167,barcelos,41.54,-8.62,62.01,93,40,4.7,PT,1603635147
168,leshukonskoye,64.9,45.76,26.74,98,82,2.66,RU,1603635147
169,vammala,61.33,22.9,39.2,86,90,5.82,FI,1603635147
170,quatre cocos,-20.21,57.76,75.2,69,75,12.75,MU,1603635147
171,santarem,-2.44,-54.71,87.8,70,20,9.17,BR,1603635147
172,trairi,-3.28,-39.27,88.97,53,29,14.76,BR,1603635148
173,novogurovskiy,54.47,37.34,50.0,76,75,4.47,RU,1603635148
174,kapuskasing,49.42,-82.43,14.0,92,20,2.24,CA,1603635148
175,ossora,59.24,163.07,37.76,80,100,9.1,RU,1603635148
176,sitka,57.05,-135.33,41.0,41,90,4.7,US,1603635148
177,wajima,37.4,136.9,61.3,65,11,14.76,JP,1603635148
178,coihaique,-45.58,-72.07,48.2,61,75,8.05,CL,1603635149
179,cidreira,-30.18,-50.21,72.07,80,63,22.01,BR,1603635149
180,sur,22.57,59.53,77.56,50,0,9.46,OM,1603635149
181,bull savanna,17.89,-77.59,79.86,82,92,18.68,JM,1603635149
182,catalina,32.51,-110.92,66.99,51,94,5.88,US,1603635149
183,merritt,50.11,-120.79,21.2,73,1,10.29,CA,1603635002
184,bugasong,11.04,122.07,78.67,87,100,19.66,PH,1603635149
185,bubaque,11.28,-15.83,83.75,77,14,6.51,GW,1603635149
186,codrington,-38.27,141.97,48.29,68,0,15.82,AU,1603635097
187,west plains,36.73,-91.85,45.0,81,90,4.7,US,1603635150
188,bay roberts,47.6,-53.26,51.01,99,100,8.01,CA,1603635150
189,moree,-29.47,149.85,55.4,87,0,2.93,AU,1603635150
190,la ronge,55.1,-105.28,21.2,73,90,8.05,CA,1603635150
191,hobyo,5.35,48.53,81.99,74,13,12.77,SO,1603635150
192,dhidhdhoo,6.88,73.1,82.02,76,52,12.03,MV,1603635150
193,gunjur,13.2,-16.73,95.0,63,40,3.36,GM,1603635150
194,upernavik,72.79,-56.15,15.13,79,38,6.53,GL,1603635151
195,lebu,-37.62,-73.65,52.97,62,0,6.08,CL,1603635049
196,soroti,1.71,33.61,77.45,69,100,5.99,UG,1603635151
197,port lincoln,-34.73,135.87,52.03,64,60,17.67,AU,1603635151
198,taywarah,33.35,64.42,33.82,77,0,2.33,AF,1603635151
199,college,64.86,-147.8,28.99,85,75,2.77,US,1603635098
200,fortuna,40.6,-124.16,46.99,93,90,2.59,US,1603635151
201,senneterre,48.38,-77.23,24.8,92,75,5.82,CA,1603635152
202,pitimbu,-7.47,-34.81,86.0,62,40,10.29,BR,1603635152
203,naze,28.37,129.48,68.0,72,40,3.36,JP,1603635152
204,san cristobal,7.77,-72.22,78.8,83,75,4.7,VE,1603635152
205,srikakulam,18.3,83.9,79.05,78,0,6.93,IN,1603635152
206,yumen,40.28,97.2,37.94,59,9,10.87,CN,1603635152
207,kandrian,-6.22,149.55,77.31,84,99,4.97,PG,1603635153
208,hanmer springs,-42.52,172.82,56.64,72,83,5.88,NZ,1603635153
209,kikuchi,32.98,130.82,48.0,81,80,1.01,JP,1603635153
210,ribeira grande,38.52,-28.7,69.8,64,20,13.87,PT,1603635153
211,lakes entrance,-37.88,147.98,52.0,92,98,13.24,AU,1603635153
212,raymond,43.9,-70.47,43.0,64,0,3.0,US,1603635153
213,shirokiy,49.76,129.52,35.31,86,0,7.47,RU,1603635153
214,pula,44.87,13.85,64.4,77,20,9.17,HR,1603635074
215,whitianga,-36.83,175.7,60.01,92,3,1.99,NZ,1603635154
216,arraial do cabo,-22.97,-42.03,75.2,73,40,11.41,BR,1603635154
217,onega,63.91,38.14,33.66,92,89,12.39,RU,1603635154
218,caravelas,-17.71,-39.25,77.32,79,100,8.3,BR,1603635154
219,cockburn town,21.46,-71.14,83.55,79,50,23.17,TC,1603635110
220,eskisehir,39.78,30.52,75.2,38,0,11.41,TR,1603635154
221,tiksi,71.69,128.87,6.1,90,100,30.02,RU,1603635154
222,severo-kurilsk,50.68,156.12,43.7,87,48,5.77,RU,1603635155
223,merauke,-8.47,140.33,79.83,74,100,6.26,ID,1603635155
224,boysun,38.21,67.2,47.84,51,0,1.88,UZ,1603635155
225,chulman,56.85,124.91,21.13,95,100,3.29,RU,1603635155
226,dom pedrito,-30.98,-54.67,80.53,60,6,6.96,BR,1603635155
227,butaritari,3.07,172.79,80.83,72,100,9.35,KI,1603635074
228,pevek,69.7,170.31,26.78,95,98,3.62,RU,1603635155
229,komsomolskiy,40.43,71.72,51.8,53,0,4.7,UZ,1603635103
230,tazovskiy,67.47,78.7,8.31,95,43,6.13,RU,1603635156
231,adrar,20.5,-10.07,98.85,9,99,9.4,MR,1603635156
232,east hemet,33.74,-116.94,60.01,85,78,1.01,US,1603635156
233,saint-joseph,-21.37,55.62,75.2,64,75,11.41,RE,1603635156
234,blackfoot,43.19,-112.34,15.01,46,75,18.01,US,1603635156
235,ust-koksa,50.27,85.61,28.15,74,100,3.09,RU,1603635157
236,bilma,18.69,12.92,90.23,12,0,2.39,NE,1603635157
237,unguia,8.04,-77.09,81.55,73,89,5.41,CO,1603635157
238,nome,64.5,-165.41,37.4,94,90,3.36,US,1603635102
239,esperance,-33.87,121.9,57.2,67,0,14.99,AU,1603635157
240,narsaq,60.92,-46.05,37.4,51,100,13.87,GL,1603635090
241,makakilo city,21.35,-158.09,71.6,88,1,3.36,US,1603635158
242,touros,-5.2,-35.46,86.0,66,40,11.41,BR,1603635158
243,namibe,-15.2,12.15,77.0,65,20,20.8,AO,1603635158
244,ayia galini,35.1,24.68,75.99,69,50,1.99,GR,1603635158
245,vestmanna,62.16,-7.17,46.4,93,75,14.99,FO,1603635158
246,lompoc,34.64,-120.46,60.8,77,90,3.36,US,1603634903
247,prainha,-1.8,-53.48,93.2,43,99,5.57,BR,1603635158
248,mongo,12.18,18.69,96.57,14,2,9.6,TD,1603635159
249,pierre,44.37,-100.35,21.0,85,90,11.41,US,1603634896
250,saint-augustin,51.23,-58.65,36.68,74,0,15.77,CA,1603635159
251,lexington,37.99,-84.48,48.0,93,90,10.29,US,1603635007
252,kirakira,-10.45,161.92,79.14,82,86,6.8,SB,1603635159
253,nur,52.67,22.32,59.0,68,86,1.99,PL,1603635160
254,dali,25.7,100.18,59.25,86,4,4.43,CN,1603635160
255,atambua,-9.11,124.89,77.67,83,88,1.74,ID,1603635160
256,yeppoon,-23.13,150.73,69.8,94,42,4.7,AU,1603635059
257,harsin,34.27,47.59,77.0,1,75,9.17,IR,1603635160
258,lagos,6.58,3.75,86.0,74,75,6.93,NG,1603634981
259,miechow,50.36,20.03,53.01,100,90,9.17,PL,1603635161
260,buala,-8.14,159.59,80.15,77,100,3.09,SB,1603635161
261,alofi,-19.06,-169.92,75.2,88,99,11.41,NU,1603635161
262,abha,18.22,42.51,75.2,38,20,9.17,SA,1603635161
263,mizdah,31.45,12.98,79.0,27,30,7.56,LY,1603635161
264,loandjili,-4.76,11.86,82.4,74,75,11.41,CG,1603635161
265,korla,41.76,86.15,50.85,42,100,8.95,CN,1603635162
266,polyarnyy,69.2,33.45,30.2,100,75,2.24,RU,1603635162
267,vangaindrano,-23.35,47.6,74.43,75,100,10.83,MG,1603635162
268,vila franca do campo,37.72,-25.43,68.0,56,20,9.17,PT,1603635162
269,billings,45.78,-108.5,8.6,78,90,3.36,US,1603635152
270,imbituba,-28.24,-48.67,73.4,88,75,9.17,BR,1603635162
271,sola,-13.88,167.55,79.75,83,98,17.45,VU,1603635162
272,barrow,71.29,-156.79,26.6,68,90,6.93,US,1603635162
273,nizhnyaya poyma,56.16,97.19,24.87,88,0,4.34,RU,1603635163
274,vrangel,42.73,133.08,45.73,62,0,11.05,RU,1603635163
275,murgab,37.5,61.97,71.6,28,0,6.93,TM,1603635163
276,halifax,44.65,-63.57,46.0,72,18,5.01,CA,1603634976
277,metro,-5.11,105.31,76.21,79,100,6.38,ID,1603635163
278,sisimiut,66.94,-53.67,22.05,87,100,8.95,GL,1603635163
279,te anau,-45.42,167.72,46.45,92,100,4.12,NZ,1603635164
280,constantine,36.37,6.61,68.0,34,40,6.93,DZ,1603635016
281,cape canaveral,28.41,-80.6,80.01,94,1,6.02,US,1603635118
282,hofn,64.25,-15.21,46.4,75,75,9.17,IS,1603635164
283,hami,42.8,93.45,46.31,49,0,7.99,CN,1603635164
284,soyo,-6.13,12.37,78.8,88,75,6.93,AO,1603635164
285,bambanglipuro,-7.95,110.28,78.64,88,100,6.85,ID,1603635164
286,alexandria,31.22,29.96,82.4,54,40,12.75,EG,1603634893
287,sao joao da barra,-21.64,-41.05,71.6,88,90,9.17,BR,1603635165
288,san policarpo,12.18,125.51,79.7,86,100,21.41,PH,1603635165
289,dunedin,-45.87,170.5,48.99,89,100,8.37,NZ,1603635141
290,mareeba,-17.0,145.43,78.8,78,75,3.36,AU,1603635165
291,tambopata,-12.73,-69.18,86.0,66,40,6.93,PE,1603635165
292,grindavik,63.84,-22.43,42.8,81,75,21.92,IS,1603635165
293,cap malheureux,-19.98,57.61,73.99,75,46,5.99,MU,1603635165
294,codajas,-3.84,-62.06,92.08,56,99,1.25,BR,1603635166
295,sechura,-5.56,-80.82,68.99,68,59,8.5,PE,1603635166
296,vao,-22.67,167.48,71.74,81,0,13.6,NC,1603635145
297,pandan,14.05,124.17,78.64,85,100,30.31,PH,1603635166
298,sekoma,-24.4,23.88,96.8,14,93,8.43,BW,1603635166
299,clyde river,70.47,-68.59,17.6,85,90,9.17,CA,1603635084
300,tiznit,29.58,-9.5,77.14,25,4,7.47,MA,1603635166
301,delft,52.01,4.36,55.4,82,75,13.87,NL,1603635167
302,krasnoselkup,65.7,82.47,7.36,94,63,7.87,RU,1603635167
303,tulum,20.22,-87.47,80.6,88,40,11.41,MX,1603635167
304,sorland,67.67,12.69,42.8,56,0,14.99,NO,1603635167
305,boueni,-12.9,45.08,82.4,69,20,9.17,YT,1603635167
306,dodge city,37.75,-100.02,32.0,96,90,14.99,US,1603634926
307,fare,-16.7,-151.02,79.92,68,20,0.07,PF,1603635167
308,sao miguel do araguaia,-13.28,-50.16,81.81,61,79,7.38,BR,1603635168
309,hirtshals,57.59,9.96,54.0,90,100,3.0,DK,1603635168
310,palmer,42.16,-72.33,45.0,69,100,1.99,US,1603635168
311,moindou,-21.69,165.68,73.4,69,20,5.82,NC,1603635168
312,high level,58.52,-117.14,8.6,84,5,4.79,CA,1603634887
313,bagdarin,54.43,113.6,28.13,94,100,1.3,RU,1603635128
314,kavieng,-2.57,150.8,82.38,78,93,9.37,PG,1603635168
315,westport,41.14,-73.36,46.0,70,1,8.05,US,1603635169
316,areosa,41.72,-8.86,57.99,93,40,4.7,PT,1603635169
317,jiaohe,43.73,127.34,36.37,81,11,0.6,CN,1603635169
318,bethel,41.37,-73.41,46.0,70,1,8.05,US,1603635169
319,pangnirtung,66.15,-65.71,15.15,83,30,4.29,CA,1603635103
320,gobabis,-22.45,18.97,91.17,15,100,10.31,NA,1603635169
321,borovoy,55.43,86.08,26.6,86,90,11.18,RU,1603635170
322,polignano a mare,41.0,17.22,70.0,100,21,3.0,IT,1603635170
323,honningsvag,70.98,25.97,40.87,72,74,15.12,NO,1603635103
324,mahebourg,-20.41,57.7,75.2,69,75,12.75,MU,1603635170
325,vilhena,-12.74,-60.15,77.7,75,100,2.71,BR,1603635170
326,lilongwe,-13.97,33.79,82.4,37,40,13.87,MW,1603635137
327,jibuti,11.5,42.5,89.6,55,1,10.29,DJ,1603635170
328,roma,43.21,-75.46,39.99,74,1,3.4,US,1603635170
329,yabelo,4.88,38.08,67.95,73,37,12.19,ET,1603635171
330,tautira,-17.73,-149.15,77.0,83,75,2.24,PF,1603635171
331,peterongan,-7.54,112.28,79.2,80,97,7.0,ID,1603635171
332,zhangye,38.93,100.45,44.58,53,18,3.13,CN,1603635171
333,maralal,1.1,36.7,66.25,73,92,6.38,KE,1603635171
334,marstal,54.86,10.52,53.6,87,75,9.17,DK,1603635171
335,anadyr,64.75,177.48,24.8,100,90,4.47,RU,1603635171
336,chitral,35.85,71.79,54.91,39,54,2.66,PK,1603635172
337,anzio,41.49,12.62,69.01,77,40,10.29,IT,1603635172
338,namatanai,-3.67,152.43,78.85,82,100,2.24,PG,1603635172
339,nemuro,43.32,145.57,48.79,74,1,16.64,JP,1603635172
340,yozgat,39.58,35.33,70.68,22,0,3.24,TR,1603635172
341,shache,38.42,77.24,52.88,34,100,9.33,CN,1603635172
342,grafton,42.21,-71.69,45.0,69,100,5.57,US,1603635172
343,lasa,46.62,10.7,61.0,66,40,10.29,IT,1603635173
344,oktyabrskiy,54.48,53.47,45.75,86,100,3.53,RU,1603635173
345,bud,39.45,-86.18,46.99,75,90,8.05,US,1603635173
346,bonneville,46.08,6.41,60.8,55,20,11.41,FR,1603635173
347,waipawa,-41.41,175.52,61.0,87,0,19.46,NZ,1603635173
348,lake saint louis,38.8,-90.79,45.0,83,100,1.99,US,1603635173
349,neryungri,56.67,124.65,23.05,94,100,4.43,RU,1603635174
350,vung tau,10.35,107.08,80.82,80,16,5.95,VN,1603635174
351,altamira,-3.2,-52.21,93.96,42,46,5.19,BR,1603635174
352,pisco,-13.7,-76.22,66.2,77,0,2.24,PE,1603635174
353,norman wells,65.28,-126.83,14.0,85,75,3.36,CA,1603635174
354,bang saphan,11.21,99.51,76.98,81,92,1.3,TH,1603635030
355,gorontalo,0.54,123.06,76.87,81,70,2.15,ID,1603635044
356,vostok,46.49,135.88,32.38,100,99,3.27,RU,1603635174
357,torbay,47.67,-52.73,48.99,93,90,12.75,CA,1603635175
358,sturgis,41.8,-85.42,39.99,73,90,5.82,US,1603635088
359,puerto carreno,6.19,-67.49,80.13,86,85,4.97,CO,1603635175
360,cap-aux-meules,47.38,-61.86,41.0,65,75,25.28,CA,1603635175
361,alyangula,-13.85,136.42,82.4,78,74,8.05,AU,1603635175
362,lazarev,52.23,141.51,43.2,91,100,37.65,RU,1603635175
363,severnoye,56.35,78.36,30.38,98,100,11.18,RU,1603635176
364,bozuyuk,39.91,30.04,82.4,38,0,11.41,TR,1603635176
365,shepsi,44.04,39.15,69.85,44,35,4.0,RU,1603635176
366,haines junction,60.75,-137.51,24.4,92,100,2.01,CA,1603635176
367,san rafael del sur,11.85,-86.44,77.0,88,40,1.9,NI,1603635176
368,alekseyevskaya,50.29,42.18,53.01,68,100,8.01,RU,1603635176
369,sao felix do xingu,-6.64,-51.99,93.96,44,31,2.98,BR,1603635176
370,guerrero negro,27.98,-114.06,66.81,78,99,13.67,MX,1603635096
371,hailar,49.2,119.7,28.96,93,100,5.08,CN,1603635177
372,margate,51.38,1.39,55.0,77,1,4.0,GB,1603635177
373,luwuk,-0.95,122.79,79.2,69,0,2.86,ID,1603635177
374,killybegs,54.63,-8.45,50.0,93,75,14.99,IE,1603635177
375,rayadrug,14.7,76.87,77.67,65,57,7.36,IN,1603635177
376,berlevag,70.86,29.09,37.74,82,100,13.06,NO,1603635177
377,zemio,5.03,25.14,81.23,83,99,3.2,CF,1603635178
378,talnakh,69.49,88.4,12.2,85,40,13.42,RU,1603635178
379,yekaterinoslavka,50.37,129.11,33.66,90,0,7.61,RU,1603635126
380,laem sing,12.48,102.07,79.0,73,43,1.63,TH,1603635178
381,lazaro cardenas,17.96,-102.2,79.65,83,65,4.05,MX,1603635178
382,saposoa,-6.93,-76.77,78.8,83,40,1.79,PE,1603635179
383,shouguang,36.88,118.74,57.99,49,0,3.58,CN,1603635179
384,shenjiamen,29.96,122.3,63.73,69,2,7.81,CN,1603635179
385,taltal,-25.4,-70.48,64.45,56,64,6.55,CL,1603635179
386,montijo,38.71,-8.97,63.0,88,75,8.05,PT,1603635179
387,kudahuvadhoo,2.67,72.89,83.14,78,16,11.59,MV,1603634895
388,bundu,23.18,85.58,77.0,50,96,3.62,IN,1603635179
389,qasigiannguit,68.82,-51.19,15.8,52,28,8.05,GL,1603635180
390,savonlinna,61.87,28.88,33.8,100,75,3.36,FI,1603635180
391,deputatskiy,69.3,139.9,9.34,90,65,7.34,RU,1603635180
392,aykhal,66.0,111.5,1.4,84,0,4.47,RU,1603635180
393,kon tum,14.35,108.0,69.44,92,93,1.79,VN,1603635180
394,kankon,15.02,74.02,80.6,88,40,6.93,IN,1603635180
395,floro,61.6,5.03,48.2,81,40,19.46,NO,1603635180
396,bandarbeyla,9.49,50.81,77.88,68,5,13.47,SO,1603635181
397,chipinge,-20.19,32.62,81.39,26,0,9.46,ZW,1603635181
398,antofagasta,-23.65,-70.4,59.0,72,90,12.75,CL,1603635092
399,padang,-0.95,100.35,79.56,70,78,1.61,ID,1603635094
400,verkh-usugli,52.7,115.17,27.27,96,100,1.19,RU,1603635126
401,asyut,27.18,31.18,84.2,32,0,18.34,EG,1603635181
402,tanabe,33.73,135.37,53.01,84,39,6.31,JP,1603635181
403,hamilton,39.18,-84.53,46.0,81,90,5.82,US,1603635181
404,mogadishu,2.04,45.34,84.2,70,75,13.87,SO,1603635182
405,husavik,66.04,-17.34,44.6,81,75,4.7,IS,1603635079
406,santa cruz cabralia,-16.28,-39.02,78.8,83,90,9.17,BR,1603635182
407,asau,46.43,26.4,55.99,89,100,3.76,RO,1603635182
408,envira,-7.3,-70.22,91.04,50,78,4.23,BR,1603635182
409,waingapu,-9.66,120.26,81.5,76,77,0.98,ID,1603635182
410,islahiye,37.02,36.63,86.0,17,20,3.18,TR,1603635182
411,jaisalmer,26.91,70.92,83.93,17,0,8.61,IN,1603635183
412,ous,60.91,61.52,26.04,99,99,0.85,RU,1603635183
413,huarmey,-10.07,-78.15,67.12,72,5,7.43,PE,1603635183
414,pringsewu,-5.36,104.97,75.63,85,100,6.55,ID,1603635183
415,surgut,61.25,73.42,24.8,100,90,11.18,RU,1603634996
416,bairiki,1.33,172.98,80.6,78,20,3.36,KI,1603635183
417,valle nacional,17.78,-96.32,74.7,74,74,1.95,MX,1603635183
418,san juan de abajo,20.82,-105.18,81.0,88,5,2.24,MX,1603635183
419,coquimbo,-29.95,-71.34,57.2,76,90,2.24,CL,1603634926
420,thinadhoo,0.53,72.93,83.57,76,63,8.86,MV,1603635184
421,hovd,48.01,91.64,28.53,78,2,1.77,MN,1603635071
422,aitape,-3.14,142.35,79.95,80,100,1.7,PG,1603635184
423,morant bay,17.88,-76.41,84.2,79,40,29.97,JM,1603635184
424,armacao de pera,37.1,-8.36,68.0,82,20,14.99,PT,1603635184
425,amga,60.9,131.96,8.31,94,0,1.41,RU,1603635185
426,lalmohan,22.34,90.74,80.38,76,100,3.15,BD,1603635185
427,hambantota,6.12,81.12,86.0,70,40,6.93,LK,1603635185
428,lashio,22.93,97.75,67.6,97,68,0.83,MM,1603635185
429,ola,59.58,151.28,37.58,78,100,19.3,RU,1603635185
430,nanakuli,21.39,-158.15,71.6,88,1,3.36,US,1603635185
431,tiarei,-17.53,-149.33,77.0,83,75,2.24,PF,1603635185
432,grand gaube,-20.01,57.66,73.99,75,50,5.99,MU,1603635129
433,nyandoma,61.67,40.2,30.54,98,75,6.38,RU,1603635186
434,puerto leguizamo,-0.19,-74.78,86.63,60,95,3.74,CO,1603635186
435,visnes,59.36,5.22,53.6,71,40,17.22,NO,1603635186
436,springbok,-29.66,17.89,85.98,13,58,15.88,ZA,1603635186
437,puerto colombia,10.99,-74.95,78.8,94,40,6.93,CO,1603635186
438,mackay,-21.15,149.2,77.0,88,90,9.17,AU,1603635186
439,amasya,40.67,35.83,78.8,20,0,1.12,TR,1603635186
440,lata,40.16,-8.33,62.01,85,100,8.99,PT,1603635129
441,prado,-17.34,-39.22,77.04,81,100,8.81,BR,1603635187
442,ontario,34.06,-117.65,64.4,72,90,3.36,US,1603635187
443,fort nelson,58.81,-122.7,12.2,78,40,4.7,CA,1603635187
444,henties bay,-22.12,14.28,62.01,82,6,5.01,NA,1603635187
445,gravdal,68.12,13.5,42.8,56,0,14.99,NO,1603635187
446,maraa,-1.83,-65.37,84.83,74,100,2.86,BR,1603635188
447,koltubanovskiy,52.94,52.03,48.22,94,100,6.87,RU,1603635188
448,ancud,-41.87,-73.82,55.0,81,40,6.93,CL,1603635188
449,vanderhoof,54.02,-124.02,15.04,93,100,1.61,CA,1603635188
450,bathsheba,13.22,-59.52,82.4,78,20,9.17,BB,1603635188
451,haradok,55.46,29.98,51.8,76,75,11.18,BY,1603635188
452,vestmannaeyjar,63.44,-20.27,45.73,70,59,11.99,IS,1603635188
453,batagay-alyta,67.8,130.41,8.26,86,0,4.9,RU,1603635188
454,ploemeur,47.73,-3.43,57.99,62,48,20.8,FR,1603635189
455,tayzhina,53.67,87.44,28.9,84,100,3.47,RU,1603635189
456,mao,39.89,4.27,71.6,60,0,18.34,ES,1603635189
457,la palma,33.85,-118.05,64.4,77,90,8.05,US,1603635189
458,kachug,53.96,105.88,27.34,92,100,14.58,RU,1603635123
459,spassk-ryazanskiy,54.41,40.38,46.0,56,0,5.99,RU,1603635189
460,ulladulla,-35.35,150.47,55.4,100,75,17.22,AU,1603635189
461,atbasar,51.8,68.33,45.05,85,100,13.76,KZ,1603635190
462,nilo,4.31,-74.62,50.0,100,40,4.7,CO,1603635190
463,tete,-16.16,33.59,100.4,21,20,11.41,MZ,1603635190
464,sarakhs,36.54,61.16,73.4,18,0,9.17,IR,1603635190
465,tura,25.52,90.22,70.5,97,21,1.83,IN,1603635190
466,kangaatsiaq,68.31,-53.46,21.27,87,52,11.65,GL,1603635120
467,presidencia roque saenz pena,-26.79,-60.44,96.01,42,0,5.99,AR,1603635190
468,isangel,-19.55,169.27,73.53,77,0,9.89,VU,1603635191
469,khatanga,71.97,102.5,7.34,95,100,11.03,RU,1603635191
470,blackfalds,52.38,-113.79,-5.8,76,5,6.93,CA,1603635191
471,akhmeta,42.03,45.21,71.6,43,0,4.7,GE,1603635191
472,timmins,48.47,-81.33,24.8,100,75,2.24,CA,1603634912
473,iralaya,15.0,-83.23,77.36,90,100,3.76,HN,1603635192
474,vila velha,-20.33,-40.29,77.0,88,75,4.7,BR,1603635125
475,requena,39.49,-1.1,66.0,46,100,8.99,ES,1603635192
476,manokwari,-0.87,134.08,80.46,75,19,3.27,ID,1603635192
477,chuy,-33.7,-53.46,70.65,81,100,10.11,UY,1603635192
478,necochea,-38.55,-58.74,62.01,95,100,5.99,AR,1603635192
479,hastings,50.86,0.57,55.0,87,40,9.17,GB,1603635192
480,oussouye,12.48,-16.55,93.2,56,75,4.7,SN,1603635193
481,hanna,51.63,-111.9,6.01,83,0,3.0,CA,1603634974
482,olinda,-8.01,-34.86,84.2,74,40,10.29,BR,1603635017
483,verkhoyansk,67.54,133.38,11.44,87,38,8.05,RU,1603635193
484,leningradskiy,69.38,178.42,24.35,87,0,4.65,RU,1603635096
485,yatou,37.15,122.38,54.9,81,0,4.85,CN,1603635193
486,linjiang,41.81,126.91,37.44,77,12,1.57,CN,1603635193
487,zhongshu,24.52,103.77,57.56,91,21,3.38,CN,1603635194
488,santa maria,-29.68,-53.81,83.71,53,0,4.9,BR,1603635124
489,taoudenni,22.68,-3.98,103.33,8,0,12.37,ML,1603635194
490,praia,14.92,-23.51,87.8,52,0,25.28,CV,1603634936
491,geraldton,-28.77,114.6,68.0,77,0,5.82,AU,1603635194
492,emba,48.83,58.14,55.98,67,100,9.64,KZ,1603635194
493,mayo,38.89,-76.51,48.2,87,90,8.05,US,1603635194
494,mount isa,-20.73,139.5,75.2,29,0,11.41,AU,1603635195
495,naravarikuppam,13.2,80.17,82.4,78,75,4.7,IN,1603635195
496,kostomuksha,64.57,30.58,28.0,98,30,3.02,RU,1603635195
497,tocopilla,-22.09,-70.2,68.04,49,94,11.5,CL,1603635195
498,ngawi,-7.4,111.45,79.97,81,100,3.31,ID,1603635195
499,embu-guacu,-23.85,-46.84,79.0,53,40,5.82,BR,1603635195
500,cayenne,4.93,-52.33,91.4,55,40,11.41,GF,1603635134
501,at-bashi,41.17,75.81,37.65,69,100,1.7,KG,1603635196
502,saginaw,43.33,-84.03,39.0,93,1,5.44,US,1603635196
503,helong,42.54,129.0,38.21,75,8,4.97,CN,1603635196
504,port moresby,-9.44,147.18,76.08,91,73,5.12,PG,1603635196
505,saint-francois,46.42,3.91,60.8,63,0,5.82,FR,1603635196
506,magistralnyy,56.17,107.45,29.57,94,100,12.46,RU,1603635196
507,walvis bay,-22.96,14.51,69.8,56,0,10.29,NA,1603635118
508,emerald,-23.53,148.17,71.6,56,0,5.82,AU,1603635197
509,maningrida,-12.07,134.27,80.08,74,93,5.14,AU,1603635197
510,camapua,-19.53,-54.04,88.57,51,57,9.04,BR,1603635197
511,puno,-15.83,-70.03,53.6,46,20,5.82,PE,1603635197
512,garowe,8.41,48.48,88.41,24,1,3.42,SO,1603634999
513,beisfjord,68.38,17.6,39.2,64,0,29.97,NO,1603635197
514,kungurtug,50.6,97.52,16.03,82,7,2.26,RU,1603635127
515,byron bay,-28.65,153.62,69.8,83,69,8.05,AU,1603635198
516,shimoda,34.67,138.95,61.16,58,0,5.95,JP,1603635198
517,malindi,-3.22,40.12,84.2,70,40,20.8,KE,1603635198
518,reoti,25.85,84.38,75.07,40,6,6.4,IN,1603635198
519,nyakahanga,-1.6,31.14,69.82,70,100,1.28,TZ,1603635198
520,itigi,-5.7,34.48,84.06,31,97,7.25,TZ,1603635199
521,masuguru,-11.37,38.42,93.76,29,88,9.19,TZ,1603635199
522,ayan,56.45,138.17,29.3,89,0,19.6,RU,1603635199
523,kaset sombun,16.28,101.95,72.18,73,75,1.3,TH,1603635008
524,blagoyevo,63.37,47.92,29.14,99,100,5.14,RU,1603635199
525,mitsamiouli,-11.38,43.28,80.69,70,0,11.34,KM,1603635199
526,tobermory,45.25,-81.67,37.0,93,98,5.28,CA,1603635199
527,yenagoa,4.92,6.26,85.95,66,100,1.5,NG,1603635200
528,siuna,13.73,-84.78,73.09,96,100,2.44,NI,1603635200
529,nova prata,-28.78,-51.61,84.99,21,0,3.96,BR,1603635200
530,lufilufi,-13.87,-171.6,81.0,79,100,19.91,WS,1603635200
531,obihiro,42.92,143.2,43.52,86,18,8.16,JP,1603635200
532,maroantsetra,-15.43,49.73,77.04,75,10,13.15,MG,1603635200
533,skjervoy,70.03,20.97,39.2,76,20,19.46,NO,1603635200
534,richards bay,-28.78,32.04,77.52,74,9,12.03,ZA,1603635201
535,ibra,22.69,58.53,78.24,34,0,7.65,OM,1603635171
536,taybad,34.74,60.78,56.71,32,0,9.24,IR,1603635201
537,skelleftea,64.75,20.95,30.2,100,100,3.36,SE,1603635201
538,glens falls,43.31,-73.64,43.0,56,1,14.99,US,1603635201
539,kortkeros,61.81,51.58,30.2,100,75,6.71,RU,1603635201
540,aksarka,66.56,67.8,11.89,96,92,8.59,RU,1603635202
541,bonthe,7.53,-12.51,84.7,68,100,8.16,SL,1603635202
542,namasuba,0.69,32.42,76.32,74,100,2.13,UG,1603635202
543,iberia,29.95,-91.75,63.0,100,90,5.82,US,1603635202
544,nyurba,63.28,118.33,21.69,97,100,6.22,RU,1603635202
545,axim,4.87,-2.24,81.32,79,100,10.09,GH,1603635202
546,montepuez,-13.13,39.0,85.14,38,67,8.59,MZ,1603635203
547,sao mateus,-18.72,-39.86,74.64,86,97,7.76,BR,1603635077
548,mercedes,-34.65,-59.43,68.0,99,100,4.0,AR,1603635203
549,gat,31.61,34.76,82.99,66,0,11.43,IL,1603635203
550,camacha,33.08,-16.33,71.6,60,20,12.75,PT,1603635203
551,anloga,5.79,0.9,77.0,88,20,4.7,GH,1603635203
552,bratslav,48.82,28.94,55.0,81,0,4.56,UA,1603635204
553,itabira,-19.62,-43.23,69.13,89,99,2.84,BR,1603635204
554,potam,27.6,-110.38,69.01,88,75,4.7,MX,1603635204
555,severo-yeniseyskiy,60.37,93.04,16.97,97,97,5.55,RU,1603635204
556,airai,-8.93,125.41,63.41,100,100,1.36,TL,1603635204
557,kabalo,-6.05,26.92,85.44,61,82,1.5,CD,1603635204
558,kpalime,6.9,0.63,88.25,56,46,1.72,TG,1603634951
559,dingle,11.0,122.67,76.05,92,100,14.85,PH,1603635205
560,puerto del rosario,28.5,-13.86,75.2,64,20,18.34,ES,1603635205
561,ambilobe,-13.2,49.05,84.31,50,66,1.41,MG,1603635205
562,maldonado,-34.67,-54.92,73.99,83,75,11.41,UY,1603635145
563,sokolo,14.73,-6.12,101.21,7,100,16.28,ML,1603635205
564,dabakala,8.37,-4.43,92.8,41,20,3.85,CI,1603635205
565,georgiyevka,43.04,74.71,44.6,70,0,4.47,KZ,1603635205
566,shingu,33.73,135.98,50.79,66,7,6.69,JP,1603635206
567,wakkanai,45.41,141.67,49.24,76,68,21.72,JP,1603635206
568,san quintin,30.48,-115.95,65.44,75,97,9.06,MX,1603635115
569,george town,5.41,100.34,80.6,88,40,4.36,MY,1603635206
570,tandil,-37.32,-59.13,62.01,98,100,3.13,AR,1603635206
571,dudinka,69.41,86.18,12.2,85,40,13.42,RU,1603635206
572,vanavara,60.34,102.28,25.2,93,74,5.44,RU,1603635206
573,chimbote,-9.09,-78.58,65.35,77,41,7.2,PE,1603635207
574,evanston,42.04,-87.69,46.0,80,90,8.05,US,1603635045
575,roswell,34.02,-84.36,66.2,93,75,5.82,US,1603635207
576,bongandanga,1.5,21.05,85.05,61,48,3.49,CD,1603635207
577,tecoanapa,16.52,-98.75,77.56,85,51,4.9,MX,1603635207
578,kapit,2.02,112.93,76.01,88,100,0.81,MY,1603635207
579,fayaoue,-20.65,166.53,75.33,79,68,16.51,NC,1603635207
